{
  "locations": [
    {
      "id": 1,
      "title": "senoa",
      "coordinate": { "latitude": 45.815, "longitude": 15.9819 },
      "name": "August",
      "surname": "Senoa",
      "description": "this is a Senoa",
      "icon": "assets/ico/ping_1.png",
      "img": "assets/img/senoa.jpg"
    },
    {
      "id": 2,
      "title": "matos",
      "coordinate": { "latitude": 45.8145, "longitude": 15.9816 },
      "name": "Antun Gustav",
      "surname": "Matos",
      "description": "this is a Matos",
      "icon": "assets/ico/ping_2.png",
      "img": "assets/img/matos.jpg"
    },
    {
      "id": 3,
      "title": "ujevic",
      "coordinate": { "latitude": 45.814, "longitude": 15.9813 },
      "name": "Tin",
      "surname": "Ujevic",
      "description": "this is a Ujevic",
      "icon": "assets/ico/ping_3.png",
      "img": "assets/img/ujevic.jpg"
    },
    {
      "id": 4,
      "title": "martic",
      "coordinate": { "latitude": 45.8135, "longitude": 15.981 },
      "name": "Grgo",
      "surname": "Martic",
      "description": "this is a Martic",
      "icon": "assets/ico/ping_4.png",
      "img": "assets/img/martic.jpg"
    },
    {
      "id": 5,
      "title": "krleza",
      "coordinate": { "latitude": 45.8136, "longitude": 15.98 },
      "name": "Miroslav",
      "surname": "Krleza",
      "description": "this is a Krleza",
      "icon": "assets/ico/ping_5.png",
      "img": "assets/img/krleza.jpg"
    },
    {
      "id": 6,
      "title": "zagorka",
      "coordinate": { "latitude": 45.8135, "longitude": 15.9814 },
      "name": "Marija",
      "surname": "Juric Zagorka",
      "description": "this is a Zagorka",
      "icon": "assets/ico/ping_6.png",
      "img": "assets/img/zagorka.jpg"
    }
  ],
  "planets": [
    {
      "pid": 0,
      "name": "sun",
      "coordinate": { "latitude": 45.8139, "longitude": 15.9812 }
    },
    {
      "pid": 1,
      "name": "mercur",
      "coordinate": { "latitude": 45.8139, "longitude": 15.9813 }
    },
    {
      "pid": 2,
      "name": "venus",
      "coordinate": { "latitude": 45.8141, "longitude": 15.9813 }
    },
    {
      "pid": 3,
      "name": "earth",
      "coordinate": { "latitude": 45.8142, "longitude": 15.9813 }
    },
    {
      "pid": 4,
      "name": "mars",
      "coordinate": { "latitude": 45.8139, "longitude": 15.9814 }
    },
    {
      "pid": 5,
      "name": "jupiter",
      "coordinate": { "latitude": 45.8139, "longitude": 15.9815 }
    },
    {
      "pid": 6,
      "name": "saturn",
      "coordinate": { "latitude": 45.8139, "longitude": 15.9816 }
    },
    {
      "pid": 7,
      "name": "uranus",
      "coordinate": { "latitude": 45.8139, "longitude": 15.9817 }
    },
    {
      "pid": 8,
      "name": "neptune",
      "coordinate": { "latitude": 45.8139, "longitude": 15.9818 }
    },
    {
      "pid": 9,
      "name": "pluto",
      "coordinate": { "latitude": 45.8141, "longitude": 15.9819 }
    }
  ]
}
